City_ID,City,Lat,Lng,Max Temp,Humidity,Cloudiness,Wind Speed,Country,Date
0,aginskoye,51.1,114.53,14.06,43,2,2.78,RU,1696996583
1,cedar city,37.6775,-113.0619,13.92,42,2,0.45,US,1696996930
2,redwood falls,44.5394,-95.1169,5.97,61,0,0.0,US,1696997008
3,hammerfest,70.6634,23.6821,-0.75,69,22,3.09,NO,1696996564
4,mahibadhoo,3.7833,72.9667,28.15,74,100,6.79,MV,1696997119
5,anadyr,64.75,177.4833,1.28,69,75,5.0,RU,1696997119
6,albany,42.6001,-73.9662,10.02,85,91,1.48,US,1696996542
7,tomohon,1.3346,124.8392,30.52,46,96,2.01,ID,1696997120
8,zapolyarnyy,69.4154,30.8136,-4.4,95,14,1.98,RU,1696997120
9,new norfolk,-42.7826,147.0587,21.51,23,26,0.75,AU,1696996547
10,bantogon,6.5333,124.0333,28.24,70,99,3.63,PH,1696997121
11,waitangi,-43.9535,-176.5597,9.9,70,68,3.58,NZ,1696996521
12,soissons,49.3333,3.3333,14.26,63,10,2.24,FR,1696997121
13,hudson,40.7168,-74.0663,14.54,77,75,0.0,US,1696996845
14,karachev,53.1229,34.9852,-2.16,86,13,2.25,RU,1696997121
15,okhotsk,59.3833,143.3,2.29,91,70,3.57,RU,1696997121
16,ushuaia,-54.8,-68.3,3.81,87,40,9.77,AR,1696997040
17,princeville,45.7668,-61.2985,12.46,88,0,2.57,CA,1696996965
18,wailua homesteads,22.0669,-159.378,27.24,79,75,6.17,US,1696997122
19,adamstown,-25.066,-130.1015,20.82,67,100,5.32,PN,1696997122
20,iqaluit,63.7506,-68.5145,0.85,86,100,0.0,CA,1696996821
21,neratovice,50.2593,14.5176,16.27,82,0,3.09,CZ,1696997123
22,puerto natales,-51.7236,-72.4875,3.34,90,97,3.77,CL,1696997123
23,bilibino,68.0546,166.4372,-10.02,92,83,1.79,RU,1696997123
24,grytviken,-54.2811,-36.5092,1.36,95,100,3.49,GS,1696997123
25,longyearbyen,78.2186,15.6401,-6.09,79,0,6.17,SJ,1696996862
26,port-aux-francais,-49.35,70.2167,1.68,66,100,14.96,TF,1696997124
27,kismayo,-0.3582,42.5454,26.28,80,96,5.71,SO,1696996567
28,north platte,41.1239,-100.7654,13.95,67,0,3.58,US,1696996913
29,hermanus,-34.4187,19.2345,14.19,86,4,3.7,ZA,1696996525
30,berlin,52.5244,13.4105,15.55,91,0,4.63,DE,1696996903
31,papatowai,-46.5619,169.4708,12.67,51,77,9.23,NZ,1696997124
32,stanley,54.868,-1.6985,15.44,93,75,6.17,GB,1696997125
33,isafjordur,66.0755,-23.124,1.91,91,100,8.35,IS,1696997125
34,malanje,-9.5402,16.341,18.28,91,96,3.49,AO,1696997125
35,hasaki,35.7333,140.8333,25.16,54,100,6.51,JP,1696997125
36,olinda,-8.0089,-34.8553,25.85,73,40,4.63,BR,1696997125
37,palikir - national government center,6.9248,158.1611,28.54,76,24,3.65,FM,1696997126
38,chonchi,-42.6128,-73.8092,5.07,85,7,1.74,CL,1696997126
39,margate,51.3813,1.3862,15.49,87,85,2.68,GB,1696997056
40,bethel,41.3712,-73.414,11.46,87,0,0.0,US,1696997126
41,klyuchi,52.2667,79.1667,19.05,41,77,7.42,RU,1696996543
42,sinabang,2.4803,96.3801,24.91,92,100,1.93,ID,1696996537
43,seven pagodas,12.6264,80.1722,32.03,69,95,3.32,IN,1696997127
44,port alfred,-33.5906,26.891,16.21,98,48,3.74,ZA,1696996542
45,avarua,-21.2078,-159.775,23.03,68,100,4.12,CK,1696996905
46,mejit,10.2753,170.8646,27.95,72,20,5.79,MH,1696997127
47,snezhinsk,56.085,60.7314,2.76,91,99,2.68,RU,1696997127
48,cabedelo,-6.9811,-34.8339,24.37,80,24,4.0,BR,1696996958
49,sechura,-5.5569,-80.8222,20.13,82,45,5.75,PE,1696997128
50,udachny,66.4167,112.4,9.14,81,100,11.18,RU,1696997128
51,olonkinbyen,70.9221,-8.7187,2.73,78,100,15.59,SJ,1696997128
52,ribeira grande,38.5167,-28.7,20.99,88,79,7.15,PT,1696997128
53,colonia,50.9333,6.95,17.81,84,0,1.03,DE,1696997128
54,saudarkrokur,65.7461,-19.6394,2.23,92,100,11.7,IS,1696997051
55,atafu village,-8.5421,-172.5159,28.1,78,85,3.36,TK,1696997129
56,hithadhoo,-0.6,73.0833,27.56,76,5,7.22,MV,1696996539
57,blackmans bay,-43.0167,147.3167,20.85,55,20,3.08,AU,1696997018
58,lihue,21.9789,-159.3672,27.58,74,40,6.17,US,1696996558
59,georgetown,5.4112,100.3354,29.97,78,20,2.24,MY,1696997130
60,manaure,11.7751,-72.4445,29.23,75,4,7.59,CO,1696997130
61,invercargill,-46.4,168.35,11.68,64,93,5.36,NZ,1696997130
62,basco,20.4487,121.9702,28.27,75,83,10.01,PH,1696997131
63,warora,20.2333,79.0,28.9,61,14,1.01,IN,1696997074
64,vorgashor,67.5833,63.95,-0.76,89,97,3.4,RU,1696997131
65,west island,-12.1568,96.8225,26.99,74,40,7.2,CC,1696997131
66,crucecita,-28.95,-58.9833,23.17,58,30,3.66,AR,1696997131
67,st. john's,47.5649,-52.7093,11.05,99,100,7.2,CA,1696997012
68,ancud,-41.8697,-73.8203,4.32,73,9,3.73,CL,1696997132
69,burang,30.25,81.1667,6.42,34,1,1.48,CN,1696997132
70,hawaiian paradise park,19.5933,-154.9731,25.73,78,100,3.6,US,1696997132
71,karratha,-20.7377,116.8463,34.32,28,0,4.93,AU,1696996465
72,manadhoo,5.7667,73.3833,27.15,79,95,5.12,MV,1696997133
73,amahai,-3.3333,128.9167,27.86,70,74,3.04,ID,1696996577
74,talnakh,69.4865,88.3972,1.23,93,100,5.83,RU,1696997133
75,acarau,-2.8856,-40.12,25.75,78,9,7.38,BR,1696997133
76,tanhacu,-14.0214,-41.2481,20.33,79,0,3.03,BR,1696997134
77,jamestown,42.097,-79.2353,10.57,60,100,6.69,US,1696997053
78,kotel'nikovo,47.6317,43.1461,5.4,68,81,6.0,RU,1696997134
79,i-n-salah,27.1935,2.4607,24.67,26,94,8.47,DZ,1696997134
80,margaret river,-33.95,115.0667,15.57,55,56,5.65,AU,1696997135
81,ath thawrah,35.8469,38.5443,20.66,68,0,3.74,SY,1696997135
82,lucapa,-8.4192,20.7447,20.38,88,100,0.2,AO,1696997135
83,fortuna,40.5982,-124.1573,13.88,94,100,0.0,US,1696997135
84,pontes e lacerda,-15.2261,-59.3353,26.32,61,24,1.1,BR,1696997135
85,koulikoro,14.0,-7.75,26.4,47,37,3.21,ML,1696997136
86,yellowknife,62.456,-114.3525,11.29,90,20,4.63,CA,1696996538
87,aasiaat,68.7098,-52.8699,-1.72,95,100,0.33,GL,1696996536
88,karagandy,49.8019,73.1021,7.97,57,93,6.59,KZ,1696997136
89,barreirinhas,-2.7469,-42.8264,26.53,79,30,6.54,BR,1696996849
90,naze,28.3667,129.4833,25.51,61,80,7.26,JP,1696997136
91,thompson,55.7435,-97.8558,-0.91,93,20,1.54,CA,1696997137
92,chinhoyi,-17.3667,30.2,19.75,52,41,3.84,ZW,1696997137
93,genet,9.0667,38.5,14.51,68,75,0.51,ET,1696997137
94,tsuma,32.1,131.4,23.97,54,100,2.23,JP,1696997137
95,mizunami,35.3667,137.25,21.07,56,100,0.8,JP,1696997137
96,bardai,11.65,7.2333,23.52,40,29,3.06,NG,1696997138
97,susuman,62.7833,148.1667,-8.34,76,100,0.89,RU,1696997138
98,horta,38.5333,-28.6333,20.57,88,82,7.15,PT,1696997138
99,dakhla,23.6848,-15.958,24.05,47,0,6.0,EH,1696997138
100,qaqortoq,60.7167,-46.0333,4.77,59,96,0.54,GL,1696997138
101,pisco,-13.7,-76.2167,19.03,82,25,6.69,PE,1696996471
102,lospalos,-8.5186,127.0025,28.73,51,79,5.27,TL,1696996580
103,iskateley,67.6803,53.1512,1.12,76,87,4.02,RU,1696997139
104,edinburgh of the seven seas,-37.0676,-12.3116,13.4,94,100,7.87,SH,1696997139
105,constantia,44.1833,28.65,6.5,55,13,2.98,RO,1696997139
106,antalaha,-14.9003,50.2788,23.33,78,100,1.74,MG,1696997140
107,luderitz,-26.6481,15.1594,13.8,92,89,4.14,NA,1696997140
108,darab,28.7519,54.5444,27.18,18,0,0.91,IR,1696997140
109,leticia,-4.2153,-69.9406,26.03,94,20,2.06,CO,1696997140
110,lhokseumawe,5.1801,97.1507,29.76,67,72,2.13,ID,1696997141
111,vila velha,-20.3297,-40.2925,22.97,90,75,3.13,BR,1696997108
112,port augusta,-32.5,137.7667,33.15,16,0,8.97,AU,1696997141
113,hailar,49.2,119.7,14.95,36,66,0.9,CN,1696997141
114,knyaze-volkonskoye,48.4642,135.4567,17.19,36,2,5.81,RU,1696996552
115,kerikeri,-35.2268,173.9474,18.28,69,37,2.24,NZ,1696996554
116,boa vista,2.8197,-60.6733,29.99,54,0,2.57,BR,1696996842
117,utrik,11.2278,169.8474,28.11,72,90,5.17,MH,1696997142
118,leo,11.1,-2.1,23.79,80,91,2.45,BF,1696997142
119,badger,64.8,-147.5333,-2.58,87,75,3.09,US,1696997142
120,tanout,14.9709,8.8879,27.2,21,24,4.81,NE,1696997142
121,igarka,67.4667,86.5833,1.49,97,100,9.78,RU,1696997143
122,san patricio,28.017,-97.5169,22.13,90,100,2.78,US,1696997143
123,stephenville,32.2207,-98.2023,21.8,67,0,4.12,US,1696997120
124,aracati,-4.5617,-37.7697,25.56,73,3,5.26,BR,1696997143
125,tiksi,71.6872,128.8694,-8.76,98,98,1.42,RU,1696997143
126,nyurba,63.2842,118.3319,9.5,72,100,5.81,RU,1696997143
127,whitehorse,60.7161,-135.0538,6.43,74,75,1.54,CA,1696996893
128,geraldton,-28.7667,114.6,22.23,33,0,7.72,AU,1696997144
129,college,64.8569,-147.8028,-2.53,88,75,3.09,US,1696997144
130,bredasdorp,-34.5322,20.0403,15.53,78,98,3.61,ZA,1696997144
131,muisne,0.6,-80.0333,24.39,85,100,2.27,EC,1696997144
132,fale old settlement,-9.3852,-171.2468,28.43,76,97,3.17,TK,1696996547
133,sarrebourg,48.7333,7.05,13.22,57,26,2.89,FR,1696997022
134,cardigan,52.0847,-4.6591,16.96,98,100,6.04,GB,1696997145
135,salmon arm,50.6998,-119.3024,13.57,87,100,0.0,CA,1696997111
136,bonares,37.3027,-6.6919,20.11,78,88,1.42,ES,1696997145
137,undurkhaan,47.3194,110.6556,11.5,41,8,2.64,MN,1696997145
138,nova sintra,14.8667,-24.7167,23.78,77,100,2.99,CV,1696997145
139,cienega de flores,25.95,-100.1833,20.84,100,100,2.57,MX,1696997145
140,lebu,-37.6167,-73.65,8.32,78,7,7.1,CL,1696996885
141,bor,56.3567,44.0669,3.89,81,73,2.95,RU,1696997146
142,island harbour,50.724,-1.2758,17.18,94,95,2.68,GB,1696997146
143,uturoa,-16.7333,-151.4333,26.38,80,27,5.89,PF,1696997146
144,papao,-17.75,-149.55,27.82,82,9,4.79,PF,1696997146
145,valparaiso,-33.0393,-71.6273,10.8,81,40,3.09,CL,1696997147
146,nizhnegorskiy,45.4479,34.7384,6.5,61,59,2.4,UA,1696997147
147,barranca,-10.75,-77.7667,18.1,89,91,3.5,PE,1696997147
148,prince rupert,54.3161,-130.3201,11.83,92,100,1.03,CA,1696996577
149,ta`u,-14.2336,-169.5144,26.67,83,37,9.28,AS,1696997148
150,taos,36.4072,-105.5731,10.81,49,0,2.57,US,1696997148
151,mhamid,29.82,-5.72,22.28,33,85,1.91,MA,1696997148
152,saipan,15.1355,145.701,29.39,84,100,8.75,MP,1696997148
153,mancio lima,-7.6142,-72.8958,25.04,94,0,0.0,BR,1696997148
154,gaigeturi,33.4644,126.3183,22.03,64,20,8.75,KR,1696997149
155,fada,9.5667,8.3,20.24,92,94,0.07,NG,1696997149
156,haiku-pauwela,20.9219,-156.3051,25.02,71,20,5.66,US,1696997149
157,arawa,-6.2132,155.5367,30.49,66,100,1.92,PG,1696997149
158,ambon,-3.6954,128.1814,30.08,66,20,2.57,ID,1696997150
159,chui,-33.6971,-53.4616,15.11,97,82,2.88,UY,1696997150
160,hamilton,39.1834,-84.5333,10.43,75,1,0.89,US,1696996853
161,petropavlovsk-kamchatsky,53.0452,158.6483,9.33,57,40,8.94,RU,1696997151
162,leognan,44.7355,-0.5974,12.03,94,100,1.03,FR,1696997151
163,la'ie,21.6477,-157.9253,27.98,72,67,2.24,US,1696996566
164,nizhneudinsk,54.9076,99.0276,13.34,54,59,1.79,RU,1696997151
165,nassau,40.7507,-73.5829,15.6,79,0,0.0,US,1696997151
166,punta arenas,-53.15,-70.9167,6.06,70,75,12.35,CL,1696997101
167,aykhal,66.0,111.5,5.59,92,100,13.41,RU,1696997151
168,ierapetra,35.01,25.7353,23.41,45,0,1.79,GR,1696997152
169,saint-philippe,-21.3585,55.7679,24.77,67,51,1.09,RE,1696996917
170,inari,68.906,27.0288,-6.89,81,98,1.37,FI,1696997152
171,dudinka,69.4058,86.1778,1.49,93,100,6.71,RU,1696997152
172,alofi,-19.0595,-169.9187,24.94,61,40,6.69,NU,1696996913
173,wajir,1.7471,40.0573,23.98,73,0,2.06,KE,1696997152
174,farrukhnagar,17.0778,78.2011,28.84,60,14,3.96,IN,1696997153
175,salida,37.7058,-121.0849,20.08,66,100,5.66,US,1696997153
176,san antonio de pale,-1.4014,5.6325,25.47,85,100,6.61,GQ,1696996907
177,bereznik,62.8551,42.7072,-1.75,95,18,1.96,RU,1696997153
178,nadi,-17.8,177.4167,27.0,61,20,6.17,FJ,1696997153
179,dolhasca,47.4333,26.6,4.15,72,49,2.55,RO,1696997154
180,ravenna,44.4167,11.9833,18.66,96,9,1.31,IT,1696997110
181,sake,-1.5736,29.045,16.97,95,98,1.4,CD,1696997154
182,bahia de kino,28.8333,-111.9333,27.18,76,0,4.34,MX,1696996866
183,lensk,60.7253,114.9278,12.62,66,100,4.92,RU,1696997154
184,bogale,16.2833,95.4,29.43,73,69,2.51,MM,1696997155
185,oban,56.4127,-5.4706,8.54,70,99,8.46,GB,1696996905
186,kununurra,-15.7667,128.7333,38.99,18,54,4.63,AU,1696997155
187,navolato,24.7672,-107.6944,25.1,79,73,2.38,MX,1696997155
188,puerto ayora,-0.7393,-90.3518,24.19,94,20,3.13,EC,1696997155
189,taupo,-38.6833,176.0833,13.93,44,2,5.98,NZ,1696997156
190,tazovsky,67.4667,78.7,3.81,94,100,7.61,RU,1696997156
191,oranjemund,-28.55,16.4333,13.8,95,41,1.35,NA,1696997156
192,rio grande,-32.035,-52.0986,17.69,93,6,5.9,BR,1696996949
193,enewetak,11.3474,162.3373,28.84,72,87,5.81,MH,1696997157
194,hadibu,12.65,54.0333,27.52,75,68,0.41,YE,1696996579
195,altay,47.8667,88.1167,17.48,35,1,1.53,CN,1696997157
196,pacific grove,36.6177,-121.9166,17.59,85,100,1.54,US,1696997157
197,kone,-21.0595,164.8658,22.26,69,97,2.47,NC,1696997157
198,ust-nera,64.5667,143.2,-7.1,96,100,1.79,RU,1696997157
199,puerto san jose,13.9256,-90.8244,26.11,88,100,1.7,GT,1696997158
200,bubaque,11.2833,-15.8333,26.72,81,100,3.89,GW,1696997158
201,sijunjung,-0.6876,100.9537,29.32,70,92,1.55,ID,1696997158
202,kapa'a,22.0752,-159.319,27.99,79,75,6.17,US,1696997158
203,gaspe,48.8334,-64.4819,9.95,93,0,2.57,CA,1696997158
204,gizo,-8.103,156.8419,28.99,76,91,3.09,SB,1696997158
205,cafayate,-26.073,-65.9761,20.71,44,6,0.73,AR,1696997159
206,thabazimbi,-24.5917,27.4116,21.88,48,100,0.89,ZA,1696997159
207,keflavik,64.0049,-22.5624,4.24,70,75,11.32,IS,1696997159
208,usinsk,65.9939,57.5281,2.26,76,100,10.73,RU,1696997159
209,korla,41.7597,86.1469,18.98,34,20,1.48,CN,1696997159
210,yazd,31.8972,54.3675,20.06,24,0,2.06,IR,1696997159
211,monticello,45.3055,-93.7941,6.79,85,0,0.0,US,1696997143
212,howrah,22.5892,88.3103,33.0,58,20,2.57,IN,1696997160
213,tralee,52.2704,-9.7026,14.98,99,100,1.34,IE,1696997160
214,vilyuchinsk,52.9306,158.4028,10.15,53,10,5.61,RU,1696997160
215,kapshagay,43.8833,77.0833,22.18,22,60,1.58,KZ,1696997160
216,letterkenny,54.95,-7.7333,9.64,76,100,4.58,IE,1696997161
217,thinadhoo,0.5333,72.9333,27.63,78,91,7.01,MV,1696997161
218,port elizabeth,-33.918,25.5701,16.16,96,100,1.03,ZA,1696996885
219,kankan,10.3854,-9.3057,21.47,97,85,1.15,GN,1696997161
220,grand falls-windsor,48.9332,-55.6649,12.5,90,100,1.34,CA,1696997161
221,sur,22.5667,59.5289,31.0,51,0,1.58,OM,1696997161
222,happy valley-goose bay,53.3168,-60.3315,11.17,87,100,1.54,CA,1696997162
223,kenai,60.5544,-151.2583,5.05,75,100,1.54,US,1696997162
224,chernyshevskiy,63.0128,112.4714,9.96,78,100,7.32,RU,1696997162
225,kodiak,57.79,-152.4072,3.32,59,9,1.91,US,1696997162
226,polyarnyy,69.1989,33.4478,-1.51,87,10,3.17,RU,1696997163
227,sorong,-0.8833,131.25,29.98,66,65,5.24,ID,1696997163
228,pimentel,-6.8367,-79.9342,19.16,88,75,7.2,PE,1696997163
229,mizan teferi,6.9833,35.5833,16.67,95,93,1.21,ET,1696997163
230,brisas de zicatela,15.8369,-97.0419,26.29,65,75,1.03,MX,1696997164
231,tosontsengel,48.7567,98.2839,6.41,65,17,1.0,MN,1696997164
232,minas de marcona,-15.2119,-75.1103,13.7,87,65,5.78,PE,1696997164
233,tabou,4.423,-7.3528,24.53,92,95,2.53,CI,1696997164
234,kavaratti,10.5669,72.642,28.36,60,100,2.44,IN,1696997165
235,faya-largeau,17.9257,19.1043,28.28,27,60,9.66,TD,1696997165
236,tughyl,47.7252,84.2063,14.36,60,0,1.69,KZ,1696997165
237,pandan,14.0453,124.1694,29.81,69,100,3.41,PH,1696997166
238,kidal,18.4411,1.4078,27.24,17,7,4.3,ML,1696996578
239,gurlan,41.8447,60.3919,12.95,35,1,6.57,UZ,1696997166
240,remire-montjoly,4.9167,-52.2667,24.02,94,20,0.0,GF,1696997166
241,kourou,5.1552,-52.6478,24.03,83,0,3.11,GF,1696997166
242,fortaleza,-3.7227,-38.5247,27.34,74,40,6.17,BR,1696997166
243,westport,41.1415,-73.3579,12.51,84,0,1.54,US,1696997130
244,alice springs,-23.7,133.8833,30.75,10,0,2.06,AU,1696997167
245,port mathurin,-19.6833,63.4167,23.45,73,63,6.49,MU,1696997167
246,glace bay,46.1969,-59.957,11.09,96,75,3.09,CA,1696997062
247,buka,40.8108,69.1986,20.63,25,4,3.69,UZ,1696997167
248,cabo san lucas,22.8909,-109.9124,27.64,84,6,4.48,MX,1696996801
249,labrador city,52.9463,-66.9114,7.95,93,100,2.57,CA,1696997168
250,itoman,26.1247,127.6694,29.43,57,20,7.72,JP,1696997168
251,flying fish cove,-10.4217,105.6791,26.82,89,100,5.14,CX,1696997168
252,carnarvon,-24.8667,113.6333,26.25,38,61,9.69,AU,1696997168
253,kuchera,26.9839,73.9719,29.78,46,0,5.2,IN,1696997168
254,barra de santo antonio,-9.4047,-35.5072,22.6,81,76,1.7,BR,1696996916
255,boone,39.0334,-92.3335,15.85,66,1,2.21,US,1696997144
256,lamu,-2.2717,40.902,23.12,80,76,4.69,KE,1696997169
257,chilecito,-29.1619,-67.4974,18.56,25,0,2.64,AR,1696997169
258,marka,1.7159,44.7717,26.33,82,47,5.93,SO,1696997169
259,al hufuf,25.3646,49.5653,26.19,25,0,1.54,SA,1696997169
260,kuqa,41.7278,82.9364,18.61,37,0,1.41,CN,1696997170
261,ilulissat,69.2167,-51.1,-1.99,93,100,0.0,GL,1696997170
262,mana,5.6592,-53.7767,25.8,85,0,3.66,GF,1696997170
263,smara,26.7384,-11.6719,24.49,23,0,2.96,EH,1696997170
264,port lincoln,-34.7333,135.8667,22.55,43,90,11.36,AU,1696996959
265,la libertad,-2.2333,-80.9,22.81,88,20,2.57,EC,1696997171
266,manokwari,-0.8667,134.0833,28.48,74,68,1.7,ID,1696997171
267,nyazepetrovsk,56.0531,59.6028,2.21,90,100,2.24,RU,1696997171
268,illizi,26.4833,8.4667,19.89,32,1,5.25,DZ,1696997171
269,niquero,20.0431,-77.5828,27.69,84,95,3.25,CU,1696997171
270,north elba,44.2434,-73.9543,6.3,85,95,1.96,US,1696997172
271,naifaru,5.4444,73.3657,27.0,81,96,5.61,MV,1696997172
272,andradas,-22.0681,-46.5692,18.5,83,12,2.96,BR,1696996889
273,muang xay,20.7,101.9833,29.64,49,71,1.15,LA,1696997172
274,ola,59.5833,151.2833,1.19,79,99,1.46,RU,1696997172
275,dedovichi,57.5517,29.9502,4.88,82,99,5.93,RU,1696997172
276,touros,-5.1989,-35.4608,25.39,77,13,6.1,BR,1696997173
277,cao bang,22.6667,106.25,27.5,52,49,1.56,VN,1696997173
278,labytnangi,66.6572,66.4183,1.61,82,87,3.6,RU,1696997173
279,port hedland,-20.3167,118.5667,40.03,5,1,5.14,AU,1696997173
280,newman,37.3138,-121.0208,19.05,58,34,2.14,US,1696997173
281,codrington,-38.2667,141.9667,27.91,28,59,8.76,AU,1696997173
282,afaahiti,-17.75,-149.2833,26.93,85,22,4.64,PF,1696997174
283,praia da vitoria,38.7333,-27.0667,20.98,83,20,8.3,PT,1696997174
284,playa del ingles,27.7567,-15.5787,28.55,20,4,0.45,ES,1696997174
285,al jawf,29.5,38.75,20.61,66,36,3.24,SA,1696997174
286,bel ombre,-4.6167,55.4167,25.91,89,40,1.54,SC,1696997174
287,mar del plata,-38.0023,-57.5575,11.16,80,0,5.14,AR,1696997174
288,cole harbour,44.6724,-63.4751,11.71,90,0,2.06,CA,1696997175
289,volchikha,52.0333,80.3833,16.66,45,98,3.58,RU,1696997175
290,kalmunai,7.4167,81.8167,28.75,72,28,4.31,LK,1696997175
291,bintulu,3.1667,113.0333,32.23,70,40,1.54,MY,1696997175
292,nar'yan-mar,67.6713,53.087,1.17,76,90,4.02,RU,1696997176
293,nili,33.7218,66.1302,17.22,15,0,2.22,AF,1696997176
294,inirida,3.8653,-67.9239,21.75,96,100,1.52,CO,1696997176
295,banda aceh,5.5577,95.3222,28.89,72,100,3.13,ID,1696997176
296,dolisie,-4.1997,12.6739,22.95,89,99,0.99,CG,1696997176
297,ulanhot,46.0833,122.0833,18.71,32,20,1.11,CN,1696997177
298,slavyanka,42.8633,131.3847,16.73,37,0,1.7,RU,1696997177
299,taoudenni,22.6783,-3.9836,26.89,21,27,5.08,ML,1696997177
300,ciudad cuauhtemoc,22.1833,-97.8333,26.06,83,75,2.61,MX,1696997177
301,kas,36.2018,29.6377,22.38,52,0,1.93,TR,1696997178
302,nguigmi,14.2495,13.1092,29.93,33,52,6.01,NE,1696997178
303,estevan,49.1334,-102.9842,7.11,70,0,6.17,CA,1696996930
304,guatrache,-37.6678,-63.5302,7.21,68,15,8.57,AR,1696997178
305,tura,25.5198,90.2201,28.66,65,19,0.61,IN,1696997178
306,saint-felicien,48.6501,-72.4491,9.38,76,100,2.06,CA,1696997178
307,bikenibeu village,1.3673,173.1241,31.98,66,75,2.06,KI,1696997179
308,san nicolas,18.1725,120.5953,32.95,66,75,2.57,PH,1696997179
309,fisterra,42.9049,-9.2629,19.54,62,100,3.39,ES,1696997179
310,al bawiti,28.3492,28.8659,18.76,81,3,2.27,EG,1696997179
311,muroto-misakicho,33.2833,134.15,21.62,50,100,1.73,JP,1696997180
312,kapit,2.0167,112.9333,34.06,49,65,0.33,MY,1696997180
313,zouerate,22.7187,-12.4521,27.02,16,0,6.81,MR,1696997180
314,sal rei,16.1833,-22.9167,26.39,78,43,4.18,CV,1696997180
315,novodvinsk,64.4165,40.8122,-0.12,91,24,2.76,RU,1696996582
316,east stroudsburg,40.9995,-75.1813,11.79,85,39,0.43,US,1696997181
317,la passe,45.5549,-0.8967,14.43,73,0,2.12,FR,1696997181
318,poronaysk,49.2167,143.1167,12.94,39,1,2.72,RU,1696997181
319,mitu,1.1983,-70.1733,22.75,99,83,1.19,CO,1696996980
320,tsiombe,-25.3,45.4833,20.99,80,98,4.69,MG,1696997181
321,fredericton,45.9454,-66.6656,9.58,93,100,1.54,CA,1696996923
322,ulsteinvik,62.3432,5.8487,9.86,86,92,8.49,NO,1696996882
323,jayapura,-2.5333,140.7,33.66,65,100,2.88,ID,1696997182
324,tshikapa,-6.4167,20.8,21.04,96,98,0.98,CD,1696997183
325,itanhem,-17.1664,-40.33,20.7,96,13,2.02,BR,1696997098
326,west bay,19.3667,-81.4167,28.04,93,75,2.24,KY,1696997183
327,liman,48.9884,37.8023,0.05,80,0,3.04,UA,1696997183
328,nuuk,64.1835,-51.7216,-0.66,100,100,0.0,GL,1696997184
329,masterton,-40.9597,175.6575,13.27,48,27,3.37,NZ,1696997184
330,tolanaro,-25.0319,46.9987,21.04,88,75,3.09,MG,1696997184
331,porto velho,-8.7619,-63.9039,26.03,78,20,1.54,BR,1696996969
332,sao joao da barra,-21.6403,-41.0511,21.87,86,100,2.04,BR,1696997161
333,kingston,17.997,-76.7936,29.53,75,20,4.63,JM,1696997112
334,long beach,33.767,-118.1892,20.54,87,75,2.06,US,1696996946
335,al hamul,31.3115,31.1477,20.9,72,100,2.66,EG,1696997185
336,halapitan,7.9175,125.33,27.08,83,100,1.88,PH,1696997185
337,lompoc,34.6391,-120.4579,15.99,85,75,9.83,US,1696997186
338,urangan,-25.3,152.9,23.68,56,1,5.17,AU,1696997186
339,khasab,26.1799,56.2477,32.35,53,0,1.92,OM,1696997186
340,dhidhdhoo,6.8833,73.1,27.51,75,96,2.5,MV,1696997186
341,queenstown,-31.8976,26.8753,10.49,90,42,0.36,ZA,1696997186
342,pyapon,16.2833,95.6833,29.26,74,76,2.51,MM,1696997187
343,dryden,49.7833,-92.7503,6.16,87,100,3.09,CA,1696997187
344,paracuru,-3.41,-39.0306,27.28,76,12,6.97,BR,1696997187
345,rongelap,11.1635,166.8941,28.41,70,97,5.23,MH,1696997188
346,noumea,-22.2763,166.4572,22.99,78,95,6.59,NC,1696996707
347,huarmey,-10.0681,-78.1522,18.99,89,59,4.69,PE,1696997126
348,novoarkhanhel's'k,48.658,30.8182,2.25,79,97,1.02,UA,1696997189
349,nemuro,43.3236,145.575,12.53,57,75,5.5,JP,1696997190
350,imbituba,-28.24,-48.6703,17.02,95,20,5.67,BR,1696996991
351,akjoujt,19.6969,-14.4164,30.5,15,52,4.78,MR,1696997192
352,gambiran satu,-8.3939,114.1464,32.82,37,82,3.49,ID,1696997192
353,shache,38.4167,77.2406,19.78,28,55,2.27,CN,1696997192
354,domusnovas,39.3219,8.6486,18.58,43,0,0.18,IT,1696997193
355,port hueneme,34.1478,-119.1951,18.86,85,20,4.12,US,1696996931
356,kirando,-7.4167,30.6,24.63,55,89,2.04,TZ,1696997193
357,lorengau,-2.0226,147.2712,29.49,71,99,4.21,PG,1696997193
358,yuzhno-kurilsk,44.0306,145.8556,11.88,88,26,7.96,RU,1696997193
359,alaghsas,17.0187,8.0168,27.4,16,0,5.42,NE,1696997194
360,lae,-6.7221,146.9847,29.37,74,91,2.75,PG,1696997194
361,sao felix do xingu,-6.6447,-51.995,26.85,52,62,0.1,BR,1696997195
362,mala,-12.6581,-76.6308,18.84,87,73,3.6,PE,1696997199
363,douz,33.4663,9.0203,19.77,59,0,2.21,TN,1696997201
364,paciran,-6.8767,112.3761,31.19,55,91,4.0,ID,1696997201
365,tubarjal,30.4999,38.216,21.1,60,50,5.9,SA,1696997202
366,mount gambier,-37.8333,140.7667,29.35,24,28,6.36,AU,1696997202
367,assai,-23.3733,-50.8414,19.92,82,1,3.54,BR,1696997202
368,mount pearl,47.5166,-52.7813,10.59,98,100,7.2,CA,1696997104
369,tual,-5.6667,132.75,26.31,82,98,5.19,ID,1696997202
370,vorkuta,67.5,64.0,-0.6,89,97,3.38,RU,1696997203
371,howard springs,-12.497,131.047,32.12,30,52,2.9,AU,1696997203
372,zhoushan,30.0108,122.2047,21.59,69,99,5.0,CN,1696997203
373,at taj,24.2049,23.2857,20.25,39,6,3.83,LY,1696997203
374,livadiya,42.8692,132.6764,18.3,38,0,3.96,RU,1696997203
375,jiwani,25.05,61.7417,28.01,84,0,2.83,PK,1696997203
376,beni mester,34.8704,-1.4232,16.61,88,40,1.54,DZ,1696997204
377,antonio enes,-16.2325,39.9086,24.89,77,5,1.72,MZ,1696997204
378,tongouson,5.0214,120.1328,28.38,76,98,4.75,PH,1696997204
379,miguel ahumada,30.6167,-106.5167,23.17,29,4,2.18,MX,1696997204
380,celaliye,41.0519,28.4187,17.13,64,98,7.05,TR,1696997204
381,alesund,62.4723,6.1549,9.86,87,87,12.35,NO,1696997204
382,flin flon,54.7682,-101.865,5.35,79,62,3.25,CA,1696997138
383,gimcheon,36.1218,128.1198,21.62,46,0,1.03,KR,1696997205
384,pullman,46.7313,-117.1796,9.36,96,40,2.57,US,1696997205
385,santa ana,33.7456,-117.8678,20.48,83,75,2.06,US,1696996836
386,kudahuvadhoo,2.6708,72.8944,28.11,73,98,6.66,MV,1696997205
387,ridder,50.355,83.5133,17.1,39,6,3.27,KZ,1696997206
388,chancay,-11.5714,-77.2672,18.08,91,82,3.54,PE,1696997206
389,nicoya,10.1483,-85.452,25.13,92,100,0.81,CR,1696997206
390,tazacorte,28.629,-17.9293,28.42,26,0,4.47,ES,1696997206
391,egilsstadir,65.2653,-14.3948,2.59,98,100,14.23,IS,1696997206
392,kalemie,-5.9475,29.1947,22.2,82,100,3.45,CD,1696997206
393,duncan,34.5023,-97.9578,22.12,72,0,4.63,US,1696997207
394,beau vallon,-20.4189,57.6953,25.68,62,55,1.75,MU,1696997207
395,namsos,64.4662,11.4957,10.03,81,100,5.14,NO,1696997207
396,waynesville,35.4887,-82.9887,13.5,80,75,1.79,US,1696997207
397,heunghae,36.1125,129.3522,20.6,44,65,5.12,KR,1696997207
398,borogontsy,62.6683,131.1683,4.6,97,100,4.02,RU,1696997207
399,crane,31.3974,-102.3501,20.69,71,98,6.93,US,1696997208
400,antsiranana,-12.2787,49.2917,24.31,74,100,5.69,MG,1696997208
401,tromso,69.6496,18.957,3.01,56,20,2.06,NO,1696997208
402,nchelenge,-9.3451,28.734,23.04,78,57,3.24,ZM,1696997208
403,qui nhon,13.7667,109.2333,29.38,73,99,4.79,VN,1696997208
404,biatorbagy,47.4706,18.8189,10.66,88,22,1.3,HU,1696997208
405,jijel,36.8205,5.7667,22.5,54,0,2.31,DZ,1696997209
406,itaituba,-4.2761,-55.9836,28.94,44,85,0.94,BR,1696997209
407,tan-tan,28.438,-11.1032,21.82,50,0,2.73,MA,1696997209
408,vila franca do campo,37.7167,-25.4333,22.23,99,100,4.84,PT,1696997209
409,juneau,58.3019,-134.4197,8.45,100,100,1.51,US,1696997002
410,carutapera,-1.195,-46.02,26.21,79,3,3.21,BR,1696997210
411,mineros,-17.1167,-63.2333,30.03,45,9,4.45,BO,1696997210
412,petauke,-14.2426,31.3253,22.25,45,9,2.47,ZM,1696997210
413,zabid,14.1951,43.3152,29.55,62,0,0.8,YE,1696997210
414,kruisfontein,-34.0033,24.7314,12.71,88,87,1.78,ZA,1696997210
415,uitenhage,-33.7576,25.3971,15.77,92,99,1.22,ZA,1696997211
416,mount isa,-20.7333,139.5,33.87,20,56,3.09,AU,1696997211
417,tadine,-21.55,167.8833,22.43,63,100,4.68,NC,1696997211
418,bela vista,-22.1089,-56.5211,26.25,60,9,2.92,BR,1696997211
419,les cayes,18.2,-73.75,26.86,83,79,1.79,HT,1696997211
420,jaguarari,-10.2639,-40.1958,19.54,69,60,3.46,BR,1696997211
421,tangalle,6.024,80.7911,29.09,74,76,2.0,LK,1696997212
422,necochea,-38.5473,-58.7368,8.92,74,92,9.83,AR,1696997212
423,amnat charoen,15.9167,104.75,29.29,69,13,6.57,TH,1696997212
424,nova vicosa,-17.8919,-39.3719,23.16,84,18,2.6,BR,1696997202
425,selfoss,63.9331,-20.9971,4.47,74,9,10.47,IS,1696997212
426,zuwarah,32.9312,12.082,22.55,70,0,1.14,LY,1696997212
427,malmberget,67.1753,20.6549,-1.69,100,100,6.17,SE,1696997212
428,ardesen,41.1911,40.9875,16.42,74,97,2.18,TR,1696997213
429,port isabel,26.0734,-97.2086,24.02,93,100,4.63,US,1696997213
430,castillos,-34.1667,-53.8333,14.08,98,87,2.26,UY,1696997213
431,montepuez,-13.1256,38.9997,20.33,85,93,0.28,MZ,1696997213
432,arraial do cabo,-22.9661,-42.0278,21.92,88,40,1.54,BR,1696997213
433,gurupi,-11.7292,-49.0686,28.51,53,30,1.82,BR,1696997213
434,carbondale,37.7273,-89.2168,9.16,91,0,0.0,US,1696997214
435,celestun,20.8667,-90.4,27.73,83,66,1.64,MX,1696997214
436,adrar,20.5022,-10.0711,27.43,16,0,4.02,MR,1696997214
437,nizhnyaya omka,55.4338,74.9426,7.95,78,100,5.77,RU,1696997214
438,riverton,40.5219,-111.9391,19.28,46,0,3.09,US,1696997214
439,brigantine,39.4101,-74.3646,14.45,93,16,0.5,US,1696997214
440,magelang,-7.4706,110.2178,31.53,29,15,2.79,ID,1696997076
441,mukalla,14.5425,49.1242,27.82,72,80,2.89,YE,1696997215
442,allen,41.0706,-85.0144,11.05,66,100,2.57,US,1696997101
443,matoury,4.8483,-52.3317,23.98,94,20,0.0,GF,1696997215
444,hurricane,37.1753,-113.2899,24.46,33,2,0.45,US,1696997215
445,fort bragg,35.139,-79.006,18.95,62,75,5.14,US,1696997215
446,palkonda,18.6,83.75,30.16,67,3,1.72,IN,1696997216
447,youghal,51.95,-7.8506,15.56,100,100,4.88,IE,1696997216
448,qamdo,31.1667,97.2333,7.63,44,23,2.65,CN,1696997216
449,tourlaville,49.6383,-1.5664,14.68,100,80,5.66,FR,1696997216
450,suwayr,30.1171,40.3893,22.52,26,33,3.32,SA,1696997216
451,meadow lake,34.8014,-106.5436,17.56,35,43,2.07,US,1696997216
452,namibe,-15.1961,12.1522,18.19,88,100,1.79,AO,1696997217
453,ilesa,7.6167,4.7333,21.98,100,95,0.96,NG,1696997217
454,tonala,20.6167,-103.2333,16.51,94,100,5.66,MX,1696997217
455,lepsy,46.235,78.9456,20.62,29,96,5.27,KZ,1696997217
456,challapata,-18.9,-66.7667,11.24,38,11,1.0,BO,1696997217
457,shira,54.4911,89.9531,15.92,41,54,1.72,RU,1696997218
458,verkhnevilyuysk,63.4453,120.3167,11.08,72,100,6.26,RU,1696997218
459,spasskoye,44.6108,132.7969,14.71,42,0,2.69,RU,1696997218
460,champerico,14.3,-91.9167,25.48,91,100,3.68,GT,1696997218
461,tshabong,-26.05,22.45,20.18,62,100,2.46,BW,1696997218
462,manakara,-22.1333,48.0167,20.99,85,86,1.1,MG,1696997219
463,mugia,43.1041,-9.2179,19.8,59,100,3.19,ES,1696997219
464,khowy,38.5503,44.9521,15.94,64,98,2.99,IR,1696997219
465,tsiroanomandidy,-18.7667,46.0333,23.19,41,66,1.94,MG,1696997219
466,kapuskasing,49.4169,-82.4331,4.05,93,100,2.57,CA,1696997084
467,colares,38.7992,-9.4469,22.41,64,76,6.71,PT,1696997220
468,arno,60.1167,18.6333,12.1,88,100,9.79,SE,1696997220
469,mil'kovo,55.6078,37.7956,-0.92,93,21,2.71,RU,1696997220
470,guerrero negro,27.9769,-114.0611,19.52,85,0,8.51,MX,1696997220
471,laojunmiao,39.8333,97.7333,11.51,29,94,2.8,CN,1696997220
472,raja,8.4596,25.678,21.34,95,100,2.66,SS,1696997221
473,coquimbo,-29.9533,-71.3436,13.26,80,0,2.89,CL,1696997221
474,harstad,68.799,16.5293,4.53,95,100,17.43,NO,1696997221
475,mariehamn,60.0973,19.9348,12.12,100,100,7.72,AX,1696997221
476,smirnykh,49.75,142.8333,10.5,47,2,3.13,RU,1696997221
477,tepecoacuilco de trujano,18.3,-99.4833,21.44,93,100,0.34,MX,1696997222
478,mata-utu,-13.2816,-176.1745,27.18,83,97,8.56,WF,1696997222
479,mirny,62.5353,113.9611,11.8,71,100,5.81,RU,1696997222
480,anantapur,14.6833,77.6,30.97,49,17,3.35,IN,1696997222
481,vadso,70.0744,29.7487,-2.91,86,20,3.6,NO,1696997222
482,xilin hot,43.9667,116.0333,13.86,42,9,0.71,CN,1696997222
483,tokmok,42.8417,75.3016,23.21,18,24,2.7,KG,1696997223
484,boca suno,-0.7167,-77.1333,21.1,97,100,0.29,EC,1696997223
485,bolkhov,53.4433,36.0044,-2.23,91,11,2.62,RU,1696997223
486,djambala,-2.5447,14.7533,19.53,95,99,1.92,CG,1696997223
487,gadzhiyevo,69.2551,33.3362,-1.72,86,9,3.28,RU,1696997223
488,salto,-31.3833,-57.9667,21.04,72,13,2.68,UY,1696996983
489,fort mcmurray,56.7268,-111.381,17.77,55,0,6.69,CA,1696997119
490,yeosu,34.7546,127.6599,21.07,50,0,3.88,KR,1696997224
491,biguglia,42.6259,9.4332,19.23,86,0,4.12,FR,1696997224
492,vangaindrano,-23.35,47.6,21.92,82,33,1.03,MG,1696997224
493,pasuquin,18.3328,120.6177,30.88,67,96,2.03,PH,1696997225
494,talodi,10.6325,30.3797,24.08,76,90,2.65,SD,1696997225
495,brookings,44.3114,-96.7984,6.77,63,0,2.57,US,1696997225
496,reggane,26.7158,0.1714,25.95,22,17,6.69,DZ,1696997225
497,gandai,21.6667,81.1,30.06,50,11,0.42,IN,1696997225
498,kuanda,56.3161,116.0806,11.89,55,76,1.39,RU,1696997226
499,vernon,50.2581,-119.2691,14.05,64,100,0.45,CA,1696997226
500,san ignacio de velasco,-16.3667,-60.95,26.37,60,16,2.67,BO,1696997226
501,nelson bay,-32.7167,152.15,24.03,71,14,7.15,AU,1696997226
502,ma'rib,15.4591,45.3253,23.01,23,0,2.05,YE,1696997226
503,sao jose da coroa grande,-8.8978,-35.1478,24.99,79,98,3.04,BR,1696997227
504,chongoyape,-6.6406,-79.3892,23.31,73,39,0.75,PE,1696997227
505,moa,20.6569,-74.9403,27.23,86,100,2.05,CU,1696997227
506,villa gesell,-37.2639,-56.973,12.09,94,99,9.03,AR,1696997227
507,sitka,57.0531,-135.33,10.94,82,75,3.09,US,1696997227
508,messaad,34.1543,3.5031,17.13,53,3,0.67,DZ,1696997227
509,rtishchevo,52.2604,43.7874,0.55,83,45,4.45,RU,1696997228
510,infantes,38.7367,-3.0122,17.23,55,0,1.36,ES,1696997228
511,toamasina,-18.1667,49.3833,22.34,75,86,2.11,MG,1696997228
512,mtambile,-5.3833,39.7,25.06,76,58,4.4,TZ,1696997228
513,al ghayzah,16.2079,52.176,25.74,79,7,1.35,YE,1696997228
514,torghay,49.6339,63.4981,7.58,61,9,4.76,KZ,1696997228
515,auki,-8.7676,160.7034,29.23,68,96,0.97,SB,1696997229
516,la sarre,48.8002,-79.1996,3.74,95,99,2.42,CA,1696996990
517,edd,13.9297,41.6925,30.28,60,0,6.87,ER,1696997229
518,puerto baquerizo moreno,-0.9,-89.6,23.44,86,19,4.8,EC,1696997229
519,toliara,-23.35,43.6667,23.22,74,64,6.54,MG,1696997229
520,lisala,2.15,21.5167,19.81,98,100,0.79,CD,1696997230
521,songjianghe,42.1859,127.479,14.42,31,0,2.16,CN,1696997230
522,ceerigaabo,10.6162,47.368,17.06,84,8,2.64,SO,1696997230
523,smithers,54.7804,-127.1743,9.6,84,100,0.27,CA,1696997230
524,mahikeng,-25.8652,25.6442,19.19,64,100,7.52,ZA,1696997230
525,holualoa,19.6228,-155.9522,24.93,78,75,3.09,US,1696997231
526,freetown,8.484,-13.2299,24.95,88,100,1.64,SL,1696997231
527,zheleznodorozhnyy,55.7503,38.0042,0.04,96,21,5.81,RU,1696997231
528,kalevala,65.2,31.1667,-1.62,91,100,1.79,RU,1696997231
529,saint-pierre,-21.3393,55.4781,26.43,47,0,2.06,RE,1696997231
530,holyoke,42.2043,-72.6162,9.64,91,20,1.54,US,1696997232
531,aitape,-3.1374,142.3475,29.61,69,99,2.81,PG,1696997232
532,gubbi,13.3106,76.9444,27.05,59,68,1.66,IN,1696997232
533,manavalakurichi,8.1333,77.3,28.28,73,100,2.34,IN,1696997232
534,ust-tsilma,65.441,52.1498,2.01,76,100,5.36,RU,1696997233
535,chashniki,54.8569,29.1607,2.9,79,79,5.01,BY,1696997233
536,tomatlan,19.9333,-105.25,23.11,91,100,7.38,MX,1696997233
537,murmashi,68.8154,32.8115,-3.77,100,75,1.0,RU,1696997233
538,bayan,46.0833,127.4,16.52,37,10,3.3,CN,1696997233
539,benghazi,32.1167,20.0667,23.29,64,0,4.07,LY,1696997233
540,tutoia,-2.7619,-42.2744,26.03,81,31,5.38,BR,1696997234
541,coronel vivida,-25.9797,-52.5678,17.04,80,9,2.87,BR,1696997234
542,bengkulu,-3.8004,102.2655,28.28,75,56,4.23,ID,1696997234
543,mangrol,21.1167,70.1167,27.32,70,6,3.4,IN,1696997234
544,gwanda,-20.9333,29.0,17.52,58,99,3.01,ZW,1696997234
545,pointe aux piments,-20.0628,57.5131,25.85,67,50,1.9,MU,1696997234
